[
  {
    "City": "Delhi",
    "Latitude": "28.6139",
    "Longitude": "77.2090",
    "Public_IP": "103.48.198.141",
    "ul_lostpkts": 2283,
    "dl_lostpkts": 831,
    "total_lost": 3114,
    "ul_rxpkts": 1725362,
    "dl_rxpkts": 1724531,
    "total_packets_sent": 3449893,
    "average_delay": 3963047.0
  },
  {
    "City": "Bengaluru",
    "Latitude": "12.9716",
    "Longitude": "77.5946",
    "Public_IP": "43.247.156.26",
    "ul_lostpkts": 0,
    "dl_lostpkts": 52,
    "total_lost": 52,
    "ul_rxpkts": 1727395,
    "dl_rxpkts": 1727343,
    "total_packets_sent": 3454738,
    "average_delay": 3771755.0
  },
  {
    "City": "Ahmedabad",
    "Latitude": "23.0225",
    "Longitude": "72.5714",
    "Public_IP": "182.237.8.5",
    "ul_lostpkts": 212,
    "dl_lostpkts": 229,
    "total_lost": 441,
    "ul_rxpkts": 1727183,
    "dl_rxpkts": 1726954,
    "total_packets_sent": 3454137,
    "average_delay": 4735194.0
  },
  {
    "City": "Hyderabad",
    "Latitude": "17.3850",
    "Longitude": "78.4867",
    "Public_IP": "202.174.120.125",
    "ul_lostpkts": 0,
    "dl_lostpkts": 48,
    "total_lost": 48,
    "ul_rxpkts": 1727394,
    "dl_rxpkts": 1727346,
    "total_packets_sent": 3454740,
    "average_delay": 3748409.0
  },
  {
    "City": "Chennai",
    "Latitude": "13.0827",
    "Longitude": "80.2707",
    "Public_IP": "121.243.33.212",
    "ul_lostpkts": 0,
    "dl_lostpkts": 0,
    "total_lost": 0,
    "ul_rxpkts": 1727394,
    "dl_rxpkts": 1727394,
    "total_packets_sent": 3454788,
    "average_delay": 2048816.0
  },
  {
    "City": "Kolkata",
    "Latitude": "22.5726",
    "Longitude": "88.3639",
    "Public_IP": "223.191.3.77",
    "ul_lostpkts": 139,
    "dl_lostpkts": 203,
    "total_lost": 342,
    "ul_rxpkts": 1727256,
    "dl_rxpkts": 1727053,
    "total_packets_sent": 3454309,
    "average_delay": 3791768.0
  },
  {
    "City": "Pune",
    "Latitude": "18.5204",
    "Longitude": "73.8567",
    "Public_IP": "121.241.69.194",
    "ul_lostpkts": 0,
    "dl_lostpkts": 11231,
    "total_lost": 11231,
    "ul_rxpkts": 1727395,
    "dl_rxpkts": 1716164,
    "total_packets_sent": 3443559,
    "average_delay": 4086221.0
  },
  {
    "City": "Jaipur",
    "Latitude": "26.9124",
    "Longitude": "75.7873",
    "Public_IP": "103.207.170.147",
    "ul_lostpkts": 0,
    "dl_lostpkts": 10651,
    "total_lost": 10651,
    "ul_rxpkts": 1727395,
    "dl_rxpkts": 1716744,
    "total_packets_sent": 3444139,
    "average_delay": 3214765.0
  },
  {
    "City": "Surat",
    "Latitude": "21.1702",
    "Longitude": "72.8311",
    "Public_IP": "123.201.3.127",
    "ul_lostpkts": 0,
    "dl_lostpkts": 0,
    "total_lost": 0,
    "ul_rxpkts": 1727394,
    "dl_rxpkts": 1727394,
    "total_packets_sent": 3454788,
    "average_delay": 5162640.0
  },
  {
    "City": "Lucknow",
    "Latitude": "26.8467",
    "Longitude": "80.9462",
    "Public_IP": "180.233.123.26",
    "ul_lostpkts": 0,
    "dl_lostpkts": 43,
    "total_lost": 43,
    "ul_rxpkts": 1727395,
    "dl_rxpkts": 1727352,
    "total_packets_sent": 3454747,
    "average_delay": 3806695.0
  },
  {
    "City": "Kanpur",
    "Latitude": "26.4499",
    "Longitude": "80.3319",
    "Public_IP": "202.3.77.183",
    "ul_lostpkts": 214,
    "dl_lostpkts": 10725,
    "total_lost": 10939,
    "ul_rxpkts": 1727181,
    "dl_rxpkts": 1716456,
    "total_packets_sent": 3443637,
    "average_delay": 4725115.0
  },
  {
    "City": "Nagpur",
    "Latitude": "21.1458",
    "Longitude": "79.0882",
    "Public_IP": "183.177.124.136",
    "ul_lostpkts": 8,
    "dl_lostpkts": 0,
    "total_lost": 8,
    "ul_rxpkts": 1727387,
    "dl_rxpkts": 1727387,
    "total_packets_sent": 3454774,
    "average_delay": 4039552.0
  },
  {
    "City": "Patna",
    "Latitude": "25.5941",
    "Longitude": "85.1376",
    "Public_IP": "223.187.135.192",
    "ul_lostpkts": 1727393,
    "dl_lostpkts": 0,
    "total_lost": 1727393,
    "ul_rxpkts": 0,
    "dl_rxpkts": 0,
    "total_packets_sent": 0,
    "average_delay": 0.0
  },
  {
    "City": "Indore",
    "Latitude": "22.7196",
    "Longitude": "75.8577",
    "Public_IP": "27.97.148.95",
    "ul_lostpkts": 3929,
    "dl_lostpkts": 33,
    "total_lost": 3962,
    "ul_rxpkts": 1723466,
    "dl_rxpkts": 1723433,
    "total_packets_sent": 3446899,
    "average_delay": 3497717.0
  },
  {
    "City": "Thane",
    "Latitude": "19.2184",
    "Longitude": "73.0784",
    "Public_IP": "103.105.127.2",
    "ul_lostpkts": 1727394,
    "dl_lostpkts": 0,
    "total_lost": 1727394,
    "ul_rxpkts": 0,
    "dl_rxpkts": 0,
    "total_packets_sent": 0,
    "average_delay": 0.0
  },
  {
    "City": "Bhopal",
    "Latitude": "23.2599",
    "Longitude": "77.4126",
    "Public_IP": "122.168.254.179",
    "ul_lostpkts": 0,
    "dl_lostpkts": 36,
    "total_lost": 36,
    "ul_rxpkts": 1727395,
    "dl_rxpkts": 1727359,
    "total_packets_sent": 3454754,
    "average_delay": 4492506.0
  },
  {
    "City": "Visakhapatnam",
    "Latitude": "17.6868",
    "Longitude": "83.2185",
    "Public_IP": "125.62.213.30",
    "ul_lostpkts": 0,
    "dl_lostpkts": 0,
    "total_lost": 0,
    "ul_rxpkts": 1727394,
    "dl_rxpkts": 1727394,
    "total_packets_sent": 3454788,
    "average_delay": 4671819.0
  },
  {
    "City": "Vadodara",
    "Latitude": "22.3078",
    "Longitude": "73.1812",
    "Public_IP": "219.91.163.223",
    "ul_lostpkts": 8090,
    "dl_lostpkts": 177,
    "total_lost": 8267,
    "ul_rxpkts": 1719305,
    "dl_rxpkts": 1719128,
    "total_packets_sent": 3438433,
    "average_delay": 4767128.0
  },
  {
    "City": "Coimbatore",
    "Latitude": "11.0168",
    "Longitude": "76.9558",
    "Public_IP": "203.223.191.154",
    "ul_lostpkts": 875045,
    "dl_lostpkts": 83,
    "total_lost": 875128,
    "ul_rxpkts": 852348,
    "dl_rxpkts": 852265,
    "total_packets_sent": 1704613,
    "average_delay": 5129386.0
  },
  {
    "City": "Kochi",
    "Latitude": "9.9312",
    "Longitude": "76.2673",
    "Public_IP": "178.248.114.19",
    "ul_lostpkts": 1727394,
    "dl_lostpkts": 0,
    "total_lost": 1727394,
    "ul_rxpkts": 0,
    "dl_rxpkts": 0,
    "total_packets_sent": 0,
    "average_delay": 0.0
  },
  {
    "City": "Agra",
    "Latitude": "27.1767",
    "Longitude": "78.0080",
    "Public_IP": "59.91.188.120",
    "ul_lostpkts": 6391,
    "dl_lostpkts": 1,
    "total_lost": 6392,
    "ul_rxpkts": 1721003,
    "dl_rxpkts": 1721002,
    "total_packets_sent": 3442005,
    "average_delay": 4632302.0
  },
  {
    "City": "Madurai",
    "Latitude": "9.9251",
    "Longitude": "78.1198",
    "Public_IP": "117.254.100.142",
    "ul_lostpkts": 3,
    "dl_lostpkts": 0,
    "total_lost": 3,
    "ul_rxpkts": 1727391,
    "dl_rxpkts": 1727391,
    "total_packets_sent": 3454782,
    "average_delay": 6550787.0
  },
  {
    "City": "Rajkot",
    "Latitude": "22.3039",
    "Longitude": "70.8022",
    "Public_IP": "43.241.146.108",
    "ul_lostpkts": 218393,
    "dl_lostpkts": 9343,
    "total_lost": 227736,
    "ul_rxpkts": 1509004,
    "dl_rxpkts": 1499661,
    "total_packets_sent": 3008665,
    "average_delay": 4773835.0
  },
  {
    "City": "Aurangabad",
    "Latitude": "19.8762",
    "Longitude": "75.3433",
    "Public_IP": "117.200.165.155",
    "ul_lostpkts": 2,
    "dl_lostpkts": 10931,
    "total_lost": 10933,
    "ul_rxpkts": 1727393,
    "dl_rxpkts": 1716462,
    "total_packets_sent": 3443855,
    "average_delay": 7104728.0
  },
  {
    "City": "Jodhpur",
    "Latitude": "26.2389",
    "Longitude": "73.0243",
    "Public_IP": "117.199.189.165",
    "ul_lostpkts": 0,
    "dl_lostpkts": 0,
    "total_lost": 0,
    "ul_rxpkts": 1727395,
    "dl_rxpkts": 1727395,
    "total_packets_sent": 3454790,
    "average_delay": 3888476.0
  },
  {
    "City": "Guwahati",
    "Latitude": "26.1445",
    "Longitude": "91.7362",
    "Public_IP": "47.29.253.65",
    "ul_lostpkts": 1727396,
    "dl_lostpkts": 0,
    "total_lost": 1727396,
    "ul_rxpkts": 0,
    "dl_rxpkts": 0,
    "total_packets_sent": 0,
    "average_delay": 0.0
  },
  {
    "City": "Vijayawada",
    "Latitude": "16.5062",
    "Longitude": "80.6480",
    "Public_IP": "175.101.105.146",
    "ul_lostpkts": 886682,
    "dl_lostpkts": 0,
    "total_lost": 886682,
    "ul_rxpkts": 83466,
    "dl_rxpkts": 83466,
    "total_packets_sent": 166932,
    "average_delay": 19461054.0
  },
  {
    "City": "Bhubaneswar",
    "Latitude": "20.2961",
    "Longitude": "85.8245",
    "Public_IP": "117.201.124.77",
    "ul_lostpkts": 1,
    "dl_lostpkts": 1,
    "total_lost": 2,
    "ul_rxpkts": 1727394,
    "dl_rxpkts": 1727393,
    "total_packets_sent": 3454787,
    "average_delay": 7201962.0
  },
  {
    "City": "Salem",
    "Latitude": "11.6643",
    "Longitude": "78.1460",
    "Public_IP": "152.58.226.216",
    "ul_lostpkts": 1,
    "dl_lostpkts": 0,
    "total_lost": 1,
    "ul_rxpkts": 1727394,
    "dl_rxpkts": 1727394,
    "total_packets_sent": 3454788,
    "average_delay": 5646731.0
  },
  {
    "City": "Tiruchirappalli",
    "Latitude": "10.7905",
    "Longitude": "78.7047",
    "Public_IP": "117.207.122.137",
    "ul_lostpkts": 1027342,
    "dl_lostpkts": 7,
    "total_lost": 1027349,
    "ul_rxpkts": 700652,
    "dl_rxpkts": 700645,
    "total_packets_sent": 1401297,
    "average_delay": 2765081.0
  },
  {
    "City": "Mysuru",
    "Latitude": "12.2958",
    "Longitude": "76.6394",
    "Public_IP": "106.216.160.25",
    "ul_lostpkts": 2286,
    "dl_lostpkts": 3226,
    "total_lost": 5512,
    "ul_rxpkts": 1725358,
    "dl_rxpkts": 1722132,
    "total_packets_sent": 3447490,
    "average_delay": 5615017.0
  },
  {
    "City": "Dehradun",
    "Latitude": "30.3165",
    "Longitude": "78.0322",
    "Public_IP": "49.43.160.152",
    "ul_lostpkts": 0,
    "dl_lostpkts": 31,
    "total_lost": 31,
    "ul_rxpkts": 1727394,
    "dl_rxpkts": 1727363,
    "total_packets_sent": 3454757,
    "average_delay": 3630351.0
  },
  {
    "City": "Nashik",
    "Latitude": "20.0118",
    "Longitude": "73.7904",
    "Public_IP": "115.124.123.25",
    "ul_lostpkts": 8,
    "dl_lostpkts": 22,
    "total_lost": 30,
    "ul_rxpkts": 1727387,
    "dl_rxpkts": 1727365,
    "total_packets_sent": 3454752,
    "average_delay": 5136100.0
  },
  {
    "City": "Faridabad",
    "Latitude": "28.4082",
    "Longitude": "77.3178",
    "Public_IP": "103.79.171.11",
    "ul_lostpkts": 0,
    "dl_lostpkts": 0,
    "total_lost": 0,
    "ul_rxpkts": 1727395,
    "dl_rxpkts": 1727395,
    "total_packets_sent": 3454790,
    "average_delay": 2906860.0
  },
  {
    "City": "Kalyan-Dombivli",
    "Latitude": "19.2460",
    "Longitude": "73.0688",
    "Public_IP": "103.173.194.56",
    "ul_lostpkts": 0,
    "dl_lostpkts": 0,
    "total_lost": 0,
    "ul_rxpkts": 1727395,
    "dl_rxpkts": 1727395,
    "total_packets_sent": 3454790,
    "average_delay": 1558640.0
  },
  {
    "City": "Durgapur",
    "Latitude": "23.5276",
    "Longitude": "87.2917",
    "Public_IP": "47.11.135.230",
    "ul_lostpkts": 0,
    "dl_lostpkts": 10801,
    "total_lost": 10801,
    "ul_rxpkts": 1727396,
    "dl_rxpkts": 1716595,
    "total_packets_sent": 3443991,
    "average_delay": 4075496.0
  },
  {
    "City": "Ranchi",
    "Latitude": "23.3441",
    "Longitude": "85.3096",
    "Public_IP": "106.208.192.47",
    "ul_lostpkts": 1727397,
    "dl_lostpkts": 0,
    "total_lost": 1727397,
    "ul_rxpkts": 0,
    "dl_rxpkts": 0,
    "total_packets_sent": 0,
    "average_delay": 0.0
  },
  {
    "City": "Jalandhar",
    "Latitude": "31.3260",
    "Longitude": "75.5762",
    "Public_IP": "202.164.37.228",
    "ul_lostpkts": 1364573,
    "dl_lostpkts": 0,
    "total_lost": 1364573,
    "ul_rxpkts": 36222,
    "dl_rxpkts": 36222,
    "total_packets_sent": 72444,
    "average_delay": 27962601.0
  },
  {
    "City": "Tirupati",
    "Latitude": "13.6288",
    "Longitude": "79.4192",
    "Public_IP": "103.101.56.115",
    "ul_lostpkts": 131415,
    "dl_lostpkts": 4,
    "total_lost": 131419,
    "ul_rxpkts": 1528855,
    "dl_rxpkts": 1528851,
    "total_packets_sent": 3057706,
    "average_delay": 3660090762.0
  },
  {
    "City": "Warangal",
    "Latitude": "17.9784",
    "Longitude": "79.5941",
    "Public_IP": "218.248.13.200",
    "ul_lostpkts": 0,
    "dl_lostpkts": 39,
    "total_lost": 39,
    "ul_rxpkts": 1727395,
    "dl_rxpkts": 1727356,
    "total_packets_sent": 3454751,
    "average_delay": 4688520.0
  },
  {
    "City": "Srinagar",
    "Latitude": "34.0836",
    "Longitude": "74.7973",
    "Public_IP": "112.79.144.50",
    "ul_lostpkts": 1727393,
    "dl_lostpkts": 0,
    "total_lost": 1727393,
    "ul_rxpkts": 0,
    "dl_rxpkts": 0,
    "total_packets_sent": 0,
    "average_delay": 0.0
  },
  {
    "City": "Raipur",
    "Latitude": "21.2514",
    "Longitude": "81.6296",
    "Public_IP": "122.175.221.139",
    "ul_lostpkts": 4638,
    "dl_lostpkts": 49,
    "total_lost": 4687,
    "ul_rxpkts": 1722756,
    "dl_rxpkts": 1722707,
    "total_packets_sent": 3445463,
    "average_delay": 4111128.0
  },
  {
    "City": "Bikaner",
    "Latitude": "28.0167",
    "Longitude": "73.3167",
    "Public_IP": "103.74.223.219",
    "ul_lostpkts": 0,
    "dl_lostpkts": 0,
    "total_lost": 0,
    "ul_rxpkts": 1727395,
    "dl_rxpkts": 1727395,
    "total_packets_sent": 3454790,
    "average_delay": 3627499.0
  },
  {
    "City": "Kota",
    "Latitude": "25.2138",
    "Longitude": "75.8680",
    "Public_IP": "14.139.244.146",
    "ul_lostpkts": 891970,
    "dl_lostpkts": 5664,
    "total_lost": 897634,
    "ul_rxpkts": 835425,
    "dl_rxpkts": 829761,
    "total_packets_sent": 1665186,
    "average_delay": 3725400.0
  },
  {
    "City": "Ajmer",
    "Latitude": "26.4520",
    "Longitude": "74.6399",
    "Public_IP": "117.205.25.64",
    "ul_lostpkts": 191830,
    "dl_lostpkts": 9386,
    "total_lost": 201216,
    "ul_rxpkts": 1535563,
    "dl_rxpkts": 1526177,
    "total_packets_sent": 3061740,
    "average_delay": 4799789.0
  },
  {
    "City": "Udaipur",
    "Latitude": "24.5714",
    "Longitude": "73.6915",
    "Public_IP": "150.242.255.172",
    "ul_lostpkts": 0,
    "dl_lostpkts": 0,
    "total_lost": 0,
    "ul_rxpkts": 1727395,
    "dl_rxpkts": 1727395,
    "total_packets_sent": 3454790,
    "average_delay": 3644846.0
  },
  {
    "City": "Kurnool",
    "Latitude": "15.8281",
    "Longitude": "78.0373",
    "Public_IP": "117.195.88.56",
    "ul_lostpkts": 27,
    "dl_lostpkts": 16416,
    "total_lost": 16443,
    "ul_rxpkts": 2591066,
    "dl_rxpkts": 2574650,
    "total_packets_sent": 5165716,
    "average_delay": 4117889.0
  },
  {
    "City": "Bilaspur",
    "Latitude": "22.0796",
    "Longitude": "82.1548",
    "Public_IP": "182.71.130.10",
    "ul_lostpkts": 0,
    "dl_lostpkts": 15875,
    "total_lost": 15875,
    "ul_rxpkts": 2591093,
    "dl_rxpkts": 2575218,
    "total_packets_sent": 5166311,
    "average_delay": 3531732.0
  },
  {
    "City": "Dibrugarh",
    "Latitude": "27.4728",
    "Longitude": "95.0165",
    "Public_IP": "202.89.76.194",
    "ul_lostpkts": 0,
    "dl_lostpkts": 0,
    "total_lost": 0,
    "ul_rxpkts": 2591092,
    "dl_rxpkts": 2591092,
    "total_packets_sent": 5182184,
    "average_delay": 1641812.0
  },
  {
    "City": "Kozhikode",
    "Latitude": "11.2588",
    "Longitude": "75.7804",
    "Public_IP": "152.58.221.202",
    "ul_lostpkts": 0,
    "dl_lostpkts": 38,
    "total_lost": 38,
    "ul_rxpkts": 2591092,
    "dl_rxpkts": 2591054,
    "total_packets_sent": 5182146,
    "average_delay": 3234522.0
  },
  {
    "City": "Rourkela",
    "Latitude": "22.2647",
    "Longitude": "84.8310",
    "Public_IP": "14.139.208.84",
    "ul_lostpkts": 0,
    "dl_lostpkts": 28,
    "total_lost": 28,
    "ul_rxpkts": 2591092,
    "dl_rxpkts": 2591064,
    "total_packets_sent": 5182156,
    "average_delay": 23623030.0
  },
  {
    "City": "Gaya",
    "Latitude": "24.7960",
    "Longitude": "84.9899",
    "Public_IP": "103.167.131.110",
    "ul_lostpkts": 0,
    "dl_lostpkts": 41,
    "total_lost": 41,
    "ul_rxpkts": 2591092,
    "dl_rxpkts": 2591051,
    "total_packets_sent": 5182143,
    "average_delay": 3670960.0
  },
  {
    "City": "Jamshedpur",
    "Latitude": "22.7957",
    "Longitude": "86.2061",
    "Public_IP": "117.205.159.154",
    "ul_lostpkts": 2589120,
    "dl_lostpkts": 0,
    "total_lost": 2589120,
    "ul_rxpkts": 0,
    "dl_rxpkts": 0,
    "total_packets_sent": 0,
    "average_delay": 0.0
  },
  {
    "City": "Mangalore",
    "Latitude": "12.9141",
    "Longitude": "74.8557",
    "Public_IP": "223.186.201.179",
    "ul_lostpkts": 11786,
    "dl_lostpkts": 24,
    "total_lost": 11810,
    "ul_rxpkts": 2579312,
    "dl_rxpkts": 2579288,
    "total_packets_sent": 5158600,
    "average_delay": 7441121.0
  },
  {
    "City": "Agartala",
    "Latitude": "23.8315",
    "Longitude": "91.2869",
    "Public_IP": "14.139.209.3",
    "ul_lostpkts": 1329971,
    "dl_lostpkts": 33,
    "total_lost": 1330004,
    "ul_rxpkts": 1261214,
    "dl_rxpkts": 1261181,
    "total_packets_sent": 2522395,
    "average_delay": 4234757.0
  },
  {
    "City": "Dimapur",
    "Latitude": "25.9078",
    "Longitude": "93.7195",
    "Public_IP": "202.140.129.87",
    "ul_lostpkts": 1329882,
    "dl_lostpkts": 11,
    "total_lost": 1329893,
    "ul_rxpkts": 1261300,
    "dl_rxpkts": 1261289,
    "total_packets_sent": 2522589,
    "average_delay": 3841116.0
  },
  {
    "City": "Imphal",
    "Latitude": "24.8170",
    "Longitude": "93.9368",
    "Public_IP": "103.72.219.232",
    "ul_lostpkts": 0,
    "dl_lostpkts": 0,
    "total_lost": 0,
    "ul_rxpkts": 2591092,
    "dl_rxpkts": 2591092,
    "total_packets_sent": 5182184,
    "average_delay": 2098739.0
  },
  {
    "City": "Gangtok",
    "Latitude": "27.3389",
    "Longitude": "88.6065",
    "Public_IP": "14.139.206.84",
    "ul_lostpkts": 2589120,
    "dl_lostpkts": 0,
    "total_lost": 2589120,
    "ul_rxpkts": 0,
    "dl_rxpkts": 0,
    "total_packets_sent": 0,
    "average_delay": 0.0
  },
  {
    "City": "Aizawl",
    "Latitude": "23.1645",
    "Longitude": "92.9376",
    "Public_IP": "103.7.131.122",
    "ul_lostpkts": 0,
    "dl_lostpkts": 0,
    "total_lost": 0,
    "ul_rxpkts": 2591092,
    "dl_rxpkts": 2591092,
    "total_packets_sent": 5182184,
    "average_delay": 536225.0
  },
  {
    "City": "Kohima",
    "Latitude": "25.6700",
    "Longitude": "94.1000",
    "Public_IP": "223.27.122.179",
    "ul_lostpkts": 0,
    "dl_lostpkts": 0,
    "total_lost": 0,
    "ul_rxpkts": 2591092,
    "dl_rxpkts": 2591092,
    "total_packets_sent": 5182184,
    "average_delay": 480406.0
  },
  {
    "City": "Itanagar",
    "Latitude": "27.0844",
    "Longitude": "93.6050",
    "Public_IP": "117.194.219.28",
    "ul_lostpkts": 0,
    "dl_lostpkts": 0,
    "total_lost": 0,
    "ul_rxpkts": 2591092,
    "dl_rxpkts": 2591092,
    "total_packets_sent": 5182184,
    "average_delay": 596453.0
  },
  {
    "City": "Gudgone",
    "Latitude": "20.3061",
    "Longitude": "85.8189",
    "Public_IP": "122.162.222.205",
    "ul_lostpkts": 0,
    "dl_lostpkts": 0,
    "total_lost": 0,
    "ul_rxpkts": 2591092,
    "dl_rxpkts": 2591092,
    "total_packets_sent": 5182184,
    "average_delay": 539818.0
  },
  {
    "City": "Akola",
    "Latitude": "20.7066",
    "Longitude": "77.0209",
    "Public_IP": "103.62.16.80",
    "ul_lostpkts": 2795,
    "dl_lostpkts": 1641,
    "total_lost": 4436,
    "ul_rxpkts": 2588856,
    "dl_rxpkts": 2587215,
    "total_packets_sent": 5176071,
    "average_delay": 2967563.0
  },
  {
    "City": "Sangali",
    "Latitude": "27.3988",
    "Longitude": "92.5472",
    "Public_IP": "1.39.25.52",
    "ul_lostpkts": 23,
    "dl_lostpkts": 53,
    "total_lost": 76,
    "ul_rxpkts": 2591069,
    "dl_rxpkts": 2591016,
    "total_packets_sent": 5182085,
    "average_delay": 6566604.0
  },
  {
    "City": "New Mumbai",
    "Latitude": "19.0330",
    "Longitude": "73.0297",
    "Public_IP": "49.128.161.134",
    "ul_lostpkts": 326991,
    "dl_lostpkts": 37,
    "total_lost": 327028,
    "ul_rxpkts": 2264102,
    "dl_rxpkts": 2264065,
    "total_packets_sent": 4528167,
    "average_delay": 5851801.0
  },
  {
    "City": "Chandigarh",
    "Latitude": "30.7333",
    "Longitude": "76.7794",
    "Public_IP": "103.229.212.75",
    "ul_lostpkts": 217,
    "dl_lostpkts": 215,
    "total_lost": 432,
    "ul_rxpkts": 2590877,
    "dl_rxpkts": 2590662,
    "total_packets_sent": 5181539,
    "average_delay": 12229048.0
  },
  {
    "City": "Trivandrum",
    "Latitude": "8.5241",
    "Longitude": "76.9366",
    "Public_IP": "117.247.147.123",
    "ul_lostpkts": 1,
    "dl_lostpkts": 0,
    "total_lost": 1,
    "ul_rxpkts": 2591093,
    "dl_rxpkts": 2591093,
    "total_packets_sent": 5182186,
    "average_delay": 4393423.0
  }
]
